[
  {
    "name": "北海道",
    "lat": 43.063968,
    "lon": 141.347899
  },
  {
    "name": "青森県",
    "lat": 40.824623,
    "lon": 140.740593
  },
  {
    "name": "岩手県",
    "lat": 39.703531,
    "lon": 141.152667
  },
  {
    "name": "宮城県",
    "lat": 38.268839,
    "lon": 140.872103
  },
  {
    "name": "秋田県",
    "lat": 39.7186,
    "lon": 140.102334
  },
  {
    "name": "山形県",
    "lat": 38.240437,
    "lon": 140.363634
  },
  {
    "name": "福島県",
    "lat": 37.750299,
    "lon": 140.467521
  },
  {
    "name": "茨城県",
    "lat": 36.341813,
    "lon": 140.446793
  },
  {
    "name": "栃木県",
    "lat": 36.565725,
    "lon": 139.883565
  },
  {
    "name": "群馬県",
    "lat": 36.391208,
    "lon": 139.060156
  },
  {
    "name": "埼玉県",
    "lat": 35.857428,
    "lon": 139.648933
  },
  {
    "name": "千葉県",
    "lat": 35.605058,
    "lon": 140.123308
  },
  {
    "name": "東京都",
    "lat": 35.689521,
    "lon": 139.691704
  },
  {
    "name": "神奈川県",
    "lat": 35.447753,
    "lon": 139.642514
  },
  {
    "name": "新潟県",
    "lat": 37.902418,
    "lon": 139.023221
  },
  {
    "name": "富山県",
    "lat": 36.69529,
    "lon": 137.211338
  },
  {
    "name": "石川県",
    "lat": 36.594682,
    "lon": 136.625573
  },
  {
    "name": "福井県",
    "lat": 36.065219,
    "lon": 136.221642
  },
  {
    "name": "山梨県",
    "lat": 35.664158,
    "lon": 138.568449
  },
  {
    "name": "長野県",
    "lat": 36.651289,
    "lon": 138.181224
  },
  {
    "name": "岐阜県",
    "lat": 35.391227,
    "lon": 136.722291
  },
  {
    "name": "静岡県",
    "lat": 34.976978,
    "lon": 138.383054
  },
  {
    "name": "愛知県",
    "lat": 35.180188,
    "lon": 136.906565
  },
  {
    "name": "三重県",
    "lat": 34.730283,
    "lon": 136.508591
  },
  {
    "name": "滋賀県",
    "lat": 35.004531,
    "lon": 135.86859
  },
  {
    "name": "京都府",
    "lat": 35.021004,
    "lon": 135.755608
  },
  {
    "name": "大阪府",
    "lat": 34.686316,
    "lon": 135.519711
  },
  {
    "name": "兵庫県",
    "lat": 34.691279,
    "lon": 135.183025
  },
  {
    "name": "奈良県",
    "lat": 34.685333,
    "lon": 135.832744
  },
  {
    "name": "和歌山県",
    "lat": 34.226034,
    "lon": 135.167506
  },
  {
    "name": "鳥取県",
    "lat": 35.503869,
    "lon": 134.237672
  },
  {
    "name": "島根県",
    "lat": 35.472297,
    "lon": 133.050499
  },
  {
    "name": "岡山県",
    "lat": 34.661772,
    "lon": 133.934675
  },
  {
    "name": "広島県",
    "lat": 34.39656,
    "lon": 132.459622
  },
  {
    "name": "山口県",
    "lat": 34.186121,
    "lon": 131.4705
  },
  {
    "name": "徳島県",
    "lat": 34.06577,
    "lon": 134.559303
  },
  {
    "name": "香川県",
    "lat": 34.340149,
    "lon": 134.043444
  },
  {
    "name": "愛媛県",
    "lat": 33.84166,
    "lon": 132.765362
  },
  {
    "name": "高知県",
    "lat": 33.559705,
    "lon": 133.53108
  },
  {
    "name": "福岡県",
    "lat": 33.606785,
    "lon": 130.418314
  },
  {
    "name": "佐賀県",
    "lat": 33.249367,
    "lon": 130.298822
  },
  {
    "name": "長崎県",
    "lat": 32.744839,
    "lon": 129.873756
  },
  {
    "name": "熊本県",
    "lat": 32.789828,
    "lon": 130.741667
  },
  {
    "name": "大分県",
    "lat": 33.238194,
    "lon": 131.612591
  },
  {
    "name": "宮崎県",
    "lat": 31.91109,
    "lon": 131.423855
  },
  {
    "name": "鹿児島県",
    "lat": 31.560148,
    "lon": 130.557981
  },
  {
    "name": "沖縄県",
    "lat": 26.212401,
    "lon": 127.680932
  }
]
